{
  "type": "FeatureCollection",
  "name": "NeuroQuest App Store Geographic Coverage",
  "metadata": {
    "app": "NeuroQuest — Compassion Casino",
    "bundle_id": "com.whitneyshauntaye.neuroquest",
    "territories": 175,
    "distribution": "Apple App Store + Google Play Store",
    "generated": "2026-03-20"
  },
  "features": [
    { "type": "Feature", "properties": { "name": "United States", "iso_a2": "US", "territory_code": "US", "region": "Americas" }, "geometry": { "type": "Point", "coordinates": [-98.5795, 39.8283] } },
    { "type": "Feature", "properties": { "name": "Canada", "iso_a2": "CA", "territory_code": "CA", "region": "Americas" }, "geometry": { "type": "Point", "coordinates": [-96.8165, 56.1304] } },
    { "type": "Feature", "properties": { "name": "Mexico", "iso_a2": "MX", "territory_code": "MX", "region": "Americas" }, "geometry": { "type": "Point", "coordinates": [-102.5528, 23.6345] } },
    { "type": "Feature", "properties": { "name": "Brazil", "iso_a2": "BR", "territory_code": "BR", "region": "Americas" }, "geometry": { "type": "Point", "coordinates": [-51.9253, -14.2350] } },
    { "type": "Feature", "properties": { "name": "Argentina", "iso_a2": "AR", "territory_code": "AR", "region": "Americas" }, "geometry": { "type": "Point", "coordinates": [-63.6167, -38.4161] } },
    { "type": "Feature", "properties": { "name": "Chile", "iso_a2": "CL", "territory_code": "CL", "region": "Americas" }, "geometry": { "type": "Point", "coordinates": [-71.5430, -35.6751] } },
    { "type": "Feature", "properties": { "name": "Colombia", "iso_a2": "CO", "territory_code": "CO", "region": "Americas" }, "geometry": { "type": "Point", "coordinates": [-74.2973, 4.5709] } },
    { "type": "Feature", "properties": { "name": "Peru", "iso_a2": "PE", "territory_code": "PE", "region": "Americas" }, "geometry": { "type": "Point", "coordinates": [-75.0152, -9.1900] } },
    { "type": "Feature", "properties": { "name": "Venezuela", "iso_a2": "VE", "territory_code": "VE", "region": "Americas" }, "geometry": { "type": "Point", "coordinates": [-66.5897, 6.4238] } },
    { "type": "Feature", "properties": { "name": "Bolivia", "iso_a2": "BO", "territory_code": "BO", "region": "Americas" }, "geometry": { "type": "Point", "coordinates": [-64.9909, -16.2902] } },
    { "type": "Feature", "properties": { "name": "Ecuador", "iso_a2": "EC", "territory_code": "EC", "region": "Americas" }, "geometry": { "type": "Point", "coordinates": [-78.1834, -1.8312] } },
    { "type": "Feature", "properties": { "name": "Paraguay", "iso_a2": "PY", "territory_code": "PY", "region": "Americas" }, "geometry": { "type": "Point", "coordinates": [-58.4438, -23.4425] } },
    { "type": "Feature", "properties": { "name": "Uruguay", "iso_a2": "UY", "territory_code": "UY", "region": "Americas" }, "geometry": { "type": "Point", "coordinates": [-55.7658, -32.5228] } },
    { "type": "Feature", "properties": { "name": "Costa Rica", "iso_a2": "CR", "territory_code": "CR", "region": "Americas" }, "geometry": { "type": "Point", "coordinates": [-83.7534, 9.7489] } },
    { "type": "Feature", "properties": { "name": "Guatemala", "iso_a2": "GT", "territory_code": "GT", "region": "Americas" }, "geometry": { "type": "Point", "coordinates": [-90.2308, 15.7835] } },
    { "type": "Feature", "properties": { "name": "Honduras", "iso_a2": "HN", "territory_code": "HN", "region": "Americas" }, "geometry": { "type": "Point", "coordinates": [-86.2419, 15.2000] } },
    { "type": "Feature", "properties": { "name": "El Salvador", "iso_a2": "SV", "territory_code": "SV", "region": "Americas" }, "geometry": { "type": "Point", "coordinates": [-88.8965, 13.7942] } },
    { "type": "Feature", "properties": { "name": "Nicaragua", "iso_a2": "NI", "territory_code": "NI", "region": "Americas" }, "geometry": { "type": "Point", "coordinates": [-85.2072, 12.8654] } },
    { "type": "Feature", "properties": { "name": "Panama", "iso_a2": "PA", "territory_code": "PA", "region": "Americas" }, "geometry": { "type": "Point", "coordinates": [-80.7821, 8.5380] } },
    { "type": "Feature", "properties": { "name": "Dominican Republic", "iso_a2": "DO", "territory_code": "DO", "region": "Americas" }, "geometry": { "type": "Point", "coordinates": [-70.1627, 18.7357] } },
    { "type": "Feature", "properties": { "name": "Jamaica", "iso_a2": "JM", "territory_code": "JM", "region": "Americas" }, "geometry": { "type": "Point", "coordinates": [-77.2975, 18.1096] } },
    { "type": "Feature", "properties": { "name": "Trinidad and Tobago", "iso_a2": "TT", "territory_code": "TT", "region": "Americas" }, "geometry": { "type": "Point", "coordinates": [-61.2225, 10.6918] } },
    { "type": "Feature", "properties": { "name": "Barbados", "iso_a2": "BB", "territory_code": "BB", "region": "Americas" }, "geometry": { "type": "Point", "coordinates": [-59.5432, 13.1939] } },
    { "type": "Feature", "properties": { "name": "Bahamas", "iso_a2": "BS", "territory_code": "BS", "region": "Americas" }, "geometry": { "type": "Point", "coordinates": [-77.3963, 25.0343] } },
    { "type": "Feature", "properties": { "name": "United Kingdom", "iso_a2": "GB", "territory_code": "GB", "region": "Europe" }, "geometry": { "type": "Point", "coordinates": [-3.4359, 55.3781] } },
    { "type": "Feature", "properties": { "name": "Germany", "iso_a2": "DE", "territory_code": "DE", "region": "Europe" }, "geometry": { "type": "Point", "coordinates": [10.4515, 51.1657] } },
    { "type": "Feature", "properties": { "name": "France", "iso_a2": "FR", "territory_code": "FR", "region": "Europe" }, "geometry": { "type": "Point", "coordinates": [2.2137, 46.2276] } },
    { "type": "Feature", "properties": { "name": "Italy", "iso_a2": "IT", "territory_code": "IT", "region": "Europe" }, "geometry": { "type": "Point", "coordinates": [12.5674, 41.8719] } },
    { "type": "Feature", "properties": { "name": "Spain", "iso_a2": "ES", "territory_code": "ES", "region": "Europe" }, "geometry": { "type": "Point", "coordinates": [-3.7492, 40.4637] } },
    { "type": "Feature", "properties": { "name": "Netherlands", "iso_a2": "NL", "territory_code": "NL", "region": "Europe" }, "geometry": { "type": "Point", "coordinates": [5.2913, 52.1326] } },
    { "type": "Feature", "properties": { "name": "Belgium", "iso_a2": "BE", "territory_code": "BE", "region": "Europe" }, "geometry": { "type": "Point", "coordinates": [4.4699, 50.5039] } },
    { "type": "Feature", "properties": { "name": "Switzerland", "iso_a2": "CH", "territory_code": "CH", "region": "Europe" }, "geometry": { "type": "Point", "coordinates": [8.2275, 46.8182] } },
    { "type": "Feature", "properties": { "name": "Austria", "iso_a2": "AT", "territory_code": "AT", "region": "Europe" }, "geometry": { "type": "Point", "coordinates": [14.5501, 47.5162] } },
    { "type": "Feature", "properties": { "name": "Sweden", "iso_a2": "SE", "territory_code": "SE", "region": "Europe" }, "geometry": { "type": "Point", "coordinates": [18.6435, 60.1282] } },
    { "type": "Feature", "properties": { "name": "Norway", "iso_a2": "NO", "territory_code": "NO", "region": "Europe" }, "geometry": { "type": "Point", "coordinates": [8.4689, 60.4720] } },
    { "type": "Feature", "properties": { "name": "Denmark", "iso_a2": "DK", "territory_code": "DK", "region": "Europe" }, "geometry": { "type": "Point", "coordinates": [9.5018, 56.2639] } },
    { "type": "Feature", "properties": { "name": "Finland", "iso_a2": "FI", "territory_code": "FI", "region": "Europe" }, "geometry": { "type": "Point", "coordinates": [25.7482, 61.9241] } },
    { "type": "Feature", "properties": { "name": "Poland", "iso_a2": "PL", "territory_code": "PL", "region": "Europe" }, "geometry": { "type": "Point", "coordinates": [19.1451, 51.9194] } },
    { "type": "Feature", "properties": { "name": "Portugal", "iso_a2": "PT", "territory_code": "PT", "region": "Europe" }, "geometry": { "type": "Point", "coordinates": [-8.2245, 39.3999] } },
    { "type": "Feature", "properties": { "name": "Czech Republic", "iso_a2": "CZ", "territory_code": "CZ", "region": "Europe" }, "geometry": { "type": "Point", "coordinates": [15.4730, 49.8175] } },
    { "type": "Feature", "properties": { "name": "Hungary", "iso_a2": "HU", "territory_code": "HU", "region": "Europe" }, "geometry": { "type": "Point", "coordinates": [19.5033, 47.1625] } },
    { "type": "Feature", "properties": { "name": "Romania", "iso_a2": "RO", "territory_code": "RO", "region": "Europe" }, "geometry": { "type": "Point", "coordinates": [24.9668, 45.9432] } },
    { "type": "Feature", "properties": { "name": "Slovakia", "iso_a2": "SK", "territory_code": "SK", "region": "Europe" }, "geometry": { "type": "Point", "coordinates": [19.6990, 48.6690] } },
    { "type": "Feature", "properties": { "name": "Bulgaria", "iso_a2": "BG", "territory_code": "BG", "region": "Europe" }, "geometry": { "type": "Point", "coordinates": [25.4858, 42.7339] } },
    { "type": "Feature", "properties": { "name": "Croatia", "iso_a2": "HR", "territory_code": "HR", "region": "Europe" }, "geometry": { "type": "Point", "coordinates": [15.2000, 45.1000] } },
    { "type": "Feature", "properties": { "name": "Greece", "iso_a2": "GR", "territory_code": "GR", "region": "Europe" }, "geometry": { "type": "Point", "coordinates": [21.8243, 39.0742] } },
    { "type": "Feature", "properties": { "name": "Ireland", "iso_a2": "IE", "territory_code": "IE", "region": "Europe" }, "geometry": { "type": "Point", "coordinates": [-8.2439, 53.4129] } },
    { "type": "Feature", "properties": { "name": "Luxembourg", "iso_a2": "LU", "territory_code": "LU", "region": "Europe" }, "geometry": { "type": "Point", "coordinates": [6.1296, 49.8153] } },
    { "type": "Feature", "properties": { "name": "Cyprus", "iso_a2": "CY", "territory_code": "CY", "region": "Europe" }, "geometry": { "type": "Point", "coordinates": [33.4299, 35.1264] } },
    { "type": "Feature", "properties": { "name": "Estonia", "iso_a2": "EE", "territory_code": "EE", "region": "Europe" }, "geometry": { "type": "Point", "coordinates": [25.0136, 58.5953] } },
    { "type": "Feature", "properties": { "name": "Latvia", "iso_a2": "LV", "territory_code": "LV", "region": "Europe" }, "geometry": { "type": "Point", "coordinates": [24.6032, 56.8796] } },
    { "type": "Feature", "properties": { "name": "Lithuania", "iso_a2": "LT", "territory_code": "LT", "region": "Europe" }, "geometry": { "type": "Point", "coordinates": [23.8813, 55.1694] } },
    { "type": "Feature", "properties": { "name": "Slovenia", "iso_a2": "SI", "territory_code": "SI", "region": "Europe" }, "geometry": { "type": "Point", "coordinates": [14.9955, 46.1512] } },
    { "type": "Feature", "properties": { "name": "Malta", "iso_a2": "MT", "territory_code": "MT", "region": "Europe" }, "geometry": { "type": "Point", "coordinates": [14.3754, 35.9375] } },
    { "type": "Feature", "properties": { "name": "Iceland", "iso_a2": "IS", "territory_code": "IS", "region": "Europe" }, "geometry": { "type": "Point", "coordinates": [-19.0208, 64.9631] } },
    { "type": "Feature", "properties": { "name": "Albania", "iso_a2": "AL", "territory_code": "AL", "region": "Europe" }, "geometry": { "type": "Point", "coordinates": [20.1683, 41.1533] } },
    { "type": "Feature", "properties": { "name": "North Macedonia", "iso_a2": "MK", "territory_code": "MK", "region": "Europe" }, "geometry": { "type": "Point", "coordinates": [21.7453, 41.6086] } },
    { "type": "Feature", "properties": { "name": "Moldova", "iso_a2": "MD", "territory_code": "MD", "region": "Europe" }, "geometry": { "type": "Point", "coordinates": [28.3699, 47.4116] } },
    { "type": "Feature", "properties": { "name": "Armenia", "iso_a2": "AM", "territory_code": "AM", "region": "Europe" }, "geometry": { "type": "Point", "coordinates": [45.0382, 40.0691] } },
    { "type": "Feature", "properties": { "name": "Georgia", "iso_a2": "GE", "territory_code": "GE", "region": "Europe" }, "geometry": { "type": "Point", "coordinates": [43.3569, 42.3154] } },
    { "type": "Feature", "properties": { "name": "Kazakhstan", "iso_a2": "KZ", "territory_code": "KZ", "region": "Europe" }, "geometry": { "type": "Point", "coordinates": [66.9237, 48.0196] } },
    { "type": "Feature", "properties": { "name": "Kyrgyzstan", "iso_a2": "KG", "territory_code": "KG", "region": "Asia" }, "geometry": { "type": "Point", "coordinates": [74.7661, 41.2044] } },
    { "type": "Feature", "properties": { "name": "Japan", "iso_a2": "JP", "territory_code": "JP", "region": "Asia" }, "geometry": { "type": "Point", "coordinates": [138.2529, 36.2048] } },
    { "type": "Feature", "properties": { "name": "China", "iso_a2": "CN", "territory_code": "CN", "region": "Asia" }, "geometry": { "type": "Point", "coordinates": [104.1954, 35.8617] } },
    { "type": "Feature", "properties": { "name": "South Korea", "iso_a2": "KR", "territory_code": "KR", "region": "Asia" }, "geometry": { "type": "Point", "coordinates": [127.7669, 35.9078] } },
    { "type": "Feature", "properties": { "name": "India", "iso_a2": "IN", "territory_code": "IN", "region": "Asia" }, "geometry": { "type": "Point", "coordinates": [78.9629, 20.5937] } },
    { "type": "Feature", "properties": { "name": "Indonesia", "iso_a2": "ID", "territory_code": "ID", "region": "Asia" }, "geometry": { "type": "Point", "coordinates": [113.9213, -0.7893] } },
    { "type": "Feature", "properties": { "name": "Malaysia", "iso_a2": "MY", "territory_code": "MY", "region": "Asia" }, "geometry": { "type": "Point", "coordinates": [109.6976, 4.2105] } },
    { "type": "Feature", "properties": { "name": "Philippines", "iso_a2": "PH", "territory_code": "PH", "region": "Asia" }, "geometry": { "type": "Point", "coordinates": [121.7740, 12.8797] } },
    { "type": "Feature", "properties": { "name": "Singapore", "iso_a2": "SG", "territory_code": "SG", "region": "Asia" }, "geometry": { "type": "Point", "coordinates": [103.8198, 1.3521] } },
    { "type": "Feature", "properties": { "name": "Thailand", "iso_a2": "TH", "territory_code": "TH", "region": "Asia" }, "geometry": { "type": "Point", "coordinates": [100.9925, 15.8700] } },
    { "type": "Feature", "properties": { "name": "Vietnam", "iso_a2": "VN", "territory_code": "VN", "region": "Asia" }, "geometry": { "type": "Point", "coordinates": [108.2772, 14.0583] } },
    { "type": "Feature", "properties": { "name": "Taiwan", "iso_a2": "TW", "territory_code": "TW", "region": "Asia" }, "geometry": { "type": "Point", "coordinates": [120.9605, 23.6978] } },
    { "type": "Feature", "properties": { "name": "Hong Kong", "iso_a2": "HK", "territory_code": "HK", "region": "Asia" }, "geometry": { "type": "Point", "coordinates": [114.1694, 22.3193] } },
    { "type": "Feature", "properties": { "name": "Pakistan", "iso_a2": "PK", "territory_code": "PK", "region": "Asia" }, "geometry": { "type": "Point", "coordinates": [69.3451, 30.3753] } },
    { "type": "Feature", "properties": { "name": "Bangladesh", "iso_a2": "BD", "territory_code": "BD", "region": "Asia" }, "geometry": { "type": "Point", "coordinates": [90.3563, 23.6850] } },
    { "type": "Feature", "properties": { "name": "Sri Lanka", "iso_a2": "LK", "territory_code": "LK", "region": "Asia" }, "geometry": { "type": "Point", "coordinates": [80.7718, 7.8731] } },
    { "type": "Feature", "properties": { "name": "Nepal", "iso_a2": "NP", "territory_code": "NP", "region": "Asia" }, "geometry": { "type": "Point", "coordinates": [84.1240, 28.3949] } },
    { "type": "Feature", "properties": { "name": "Myanmar", "iso_a2": "MM", "territory_code": "MM", "region": "Asia" }, "geometry": { "type": "Point", "coordinates": [95.9560, 21.9162] } },
    { "type": "Feature", "properties": { "name": "Cambodia", "iso_a2": "KH", "territory_code": "KH", "region": "Asia" }, "geometry": { "type": "Point", "coordinates": [104.9910, 12.5657] } },
    { "type": "Feature", "properties": { "name": "Laos", "iso_a2": "LA", "territory_code": "LA", "region": "Asia" }, "geometry": { "type": "Point", "coordinates": [102.4955, 19.8563] } },
    { "type": "Feature", "properties": { "name": "Mongolia", "iso_a2": "MN", "territory_code": "MN", "region": "Asia" }, "geometry": { "type": "Point", "coordinates": [103.8467, 46.8625] } },
    { "type": "Feature", "properties": { "name": "Macau", "iso_a2": "MO", "territory_code": "MO", "region": "Asia" }, "geometry": { "type": "Point", "coordinates": [113.5439, 22.1987] } },
    { "type": "Feature", "properties": { "name": "Brunei", "iso_a2": "BN", "territory_code": "BN", "region": "Asia" }, "geometry": { "type": "Point", "coordinates": [114.7277, 4.5353] } },
    { "type": "Feature", "properties": { "name": "Uzbekistan", "iso_a2": "UZ", "territory_code": "UZ", "region": "Asia" }, "geometry": { "type": "Point", "coordinates": [64.5853, 41.3775] } },
    { "type": "Feature", "properties": { "name": "Tajikistan", "iso_a2": "TJ", "territory_code": "TJ", "region": "Asia" }, "geometry": { "type": "Point", "coordinates": [71.2761, 38.8610] } },
    { "type": "Feature", "properties": { "name": "Turkmenistan", "iso_a2": "TM", "territory_code": "TM", "region": "Asia" }, "geometry": { "type": "Point", "coordinates": [58.7793, 38.9697] } },
    { "type": "Feature", "properties": { "name": "Azerbaijan", "iso_a2": "AZ", "territory_code": "AZ", "region": "Asia" }, "geometry": { "type": "Point", "coordinates": [47.5769, 40.1431] } },
    { "type": "Feature", "properties": { "name": "Australia", "iso_a2": "AU", "territory_code": "AU", "region": "Pacific" }, "geometry": { "type": "Point", "coordinates": [133.7751, -25.2744] } },
    { "type": "Feature", "properties": { "name": "New Zealand", "iso_a2": "NZ", "territory_code": "NZ", "region": "Pacific" }, "geometry": { "type": "Point", "coordinates": [174.8860, -40.9006] } },
    { "type": "Feature", "properties": { "name": "Papua New Guinea", "iso_a2": "PG", "territory_code": "PG", "region": "Pacific" }, "geometry": { "type": "Point", "coordinates": [143.9555, -6.3149] } },
    { "type": "Feature", "properties": { "name": "Fiji", "iso_a2": "FJ", "territory_code": "FJ", "region": "Pacific" }, "geometry": { "type": "Point", "coordinates": [179.4144, -16.5782] } },
    { "type": "Feature", "properties": { "name": "Vanuatu", "iso_a2": "VU", "territory_code": "VU", "region": "Pacific" }, "geometry": { "type": "Point", "coordinates": [166.9592, -15.3767] } },
    { "type": "Feature", "properties": { "name": "Solomon Islands", "iso_a2": "SB", "territory_code": "SB", "region": "Pacific" }, "geometry": { "type": "Point", "coordinates": [160.1562, -9.6457] } },
    { "type": "Feature", "properties": { "name": "Micronesia", "iso_a2": "FM", "territory_code": "FM", "region": "Pacific" }, "geometry": { "type": "Point", "coordinates": [150.5508, 7.4256] } },
    { "type": "Feature", "properties": { "name": "Saudi Arabia", "iso_a2": "SA", "territory_code": "SA", "region": "Middle East" }, "geometry": { "type": "Point", "coordinates": [45.0792, 23.8859] } },
    { "type": "Feature", "properties": { "name": "United Arab Emirates", "iso_a2": "AE", "territory_code": "AE", "region": "Middle East" }, "geometry": { "type": "Point", "coordinates": [53.8478, 23.4241] } },
    { "type": "Feature", "properties": { "name": "Israel", "iso_a2": "IL", "territory_code": "IL", "region": "Middle East" }, "geometry": { "type": "Point", "coordinates": [34.8516, 31.0461] } },
    { "type": "Feature", "properties": { "name": "Turkey", "iso_a2": "TR", "territory_code": "TR", "region": "Middle East" }, "geometry": { "type": "Point", "coordinates": [35.2433, 38.9637] } },
    { "type": "Feature", "properties": { "name": "Egypt", "iso_a2": "EG", "territory_code": "EG", "region": "Middle East" }, "geometry": { "type": "Point", "coordinates": [30.8025, 26.8206] } },
    { "type": "Feature", "properties": { "name": "Jordan", "iso_a2": "JO", "territory_code": "JO", "region": "Middle East" }, "geometry": { "type": "Point", "coordinates": [36.2384, 30.5852] } },
    { "type": "Feature", "properties": { "name": "Lebanon", "iso_a2": "LB", "territory_code": "LB", "region": "Middle East" }, "geometry": { "type": "Point", "coordinates": [35.8623, 33.8547] } },
    { "type": "Feature", "properties": { "name": "Kuwait", "iso_a2": "KW", "territory_code": "KW", "region": "Middle East" }, "geometry": { "type": "Point", "coordinates": [47.4818, 29.3117] } },
    { "type": "Feature", "properties": { "name": "Qatar", "iso_a2": "QA", "territory_code": "QA", "region": "Middle East" }, "geometry": { "type": "Point", "coordinates": [51.1839, 25.3548] } },
    { "type": "Feature", "properties": { "name": "Bahrain", "iso_a2": "BH", "territory_code": "BH", "region": "Middle East" }, "geometry": { "type": "Point", "coordinates": [50.5577, 25.9304] } },
    { "type": "Feature", "properties": { "name": "Oman", "iso_a2": "OM", "territory_code": "OM", "region": "Middle East" }, "geometry": { "type": "Point", "coordinates": [55.9754, 21.4735] } },
    { "type": "Feature", "properties": { "name": "Iraq", "iso_a2": "IQ", "territory_code": "IQ", "region": "Middle East" }, "geometry": { "type": "Point", "coordinates": [43.6793, 33.2232] } },
    { "type": "Feature", "properties": { "name": "Yemen", "iso_a2": "YE", "territory_code": "YE", "region": "Middle East" }, "geometry": { "type": "Point", "coordinates": [48.5164, 15.5527] } },
    { "type": "Feature", "properties": { "name": "South Africa", "iso_a2": "ZA", "territory_code": "ZA", "region": "Africa" }, "geometry": { "type": "Point", "coordinates": [22.9375, -30.5595] } },
    { "type": "Feature", "properties": { "name": "Nigeria", "iso_a2": "NG", "territory_code": "NG", "region": "Africa" }, "geometry": { "type": "Point", "coordinates": [8.6753, 9.0820] } },
    { "type": "Feature", "properties": { "name": "Kenya", "iso_a2": "KE", "territory_code": "KE", "region": "Africa" }, "geometry": { "type": "Point", "coordinates": [37.9062, -0.0236] } },
    { "type": "Feature", "properties": { "name": "Ghana", "iso_a2": "GH", "territory_code": "GH", "region": "Africa" }, "geometry": { "type": "Point", "coordinates": [-1.0232, 7.9465] } },
    { "type": "Feature", "properties": { "name": "Tanzania", "iso_a2": "TZ", "territory_code": "TZ", "region": "Africa" }, "geometry": { "type": "Point", "coordinates": [34.8888, -6.3690] } },
    { "type": "Feature", "properties": { "name": "Uganda", "iso_a2": "UG", "territory_code": "UG", "region": "Africa" }, "geometry": { "type": "Point", "coordinates": [32.2903, 1.3733] } },
    { "type": "Feature", "properties": { "name": "Ethiopia", "iso_a2": "ET", "territory_code": "ET", "region": "Africa" }, "geometry": { "type": "Point", "coordinates": [40.4897, 9.1450] } },
    { "type": "Feature", "properties": { "name": "Zimbabwe", "iso_a2": "ZW", "territory_code": "ZW", "region": "Africa" }, "geometry": { "type": "Point", "coordinates": [29.1549, -19.0154] } },
    { "type": "Feature", "properties": { "name": "Zambia", "iso_a2": "ZM", "territory_code": "ZM", "region": "Africa" }, "geometry": { "type": "Point", "coordinates": [27.8493, -13.1339] } },
    { "type": "Feature", "properties": { "name": "Cameroon", "iso_a2": "CM", "territory_code": "CM", "region": "Africa" }, "geometry": { "type": "Point", "coordinates": [12.3547, 3.8480] } },
    { "type": "Feature", "properties": { "name": "Senegal", "iso_a2": "SN", "territory_code": "SN", "region": "Africa" }, "geometry": { "type": "Point", "coordinates": [-14.4524, 14.4974] } },
    { "type": "Feature", "properties": { "name": "Côte d'Ivoire", "iso_a2": "CI", "territory_code": "CI", "region": "Africa" }, "geometry": { "type": "Point", "coordinates": [-5.5471, 7.5400] } },
    { "type": "Feature", "properties": { "name": "Mozambique", "iso_a2": "MZ", "territory_code": "MZ", "region": "Africa" }, "geometry": { "type": "Point", "coordinates": [34.3015, -18.6657] } },
    { "type": "Feature", "properties": { "name": "Madagascar", "iso_a2": "MG", "territory_code": "MG", "region": "Africa" }, "geometry": { "type": "Point", "coordinates": [46.8691, -18.7669] } },
    { "type": "Feature", "properties": { "name": "Mali", "iso_a2": "ML", "territory_code": "ML", "region": "Africa" }, "geometry": { "type": "Point", "coordinates": [-1.6641, 17.5707] } },
    { "type": "Feature", "properties": { "name": "Burkina Faso", "iso_a2": "BF", "territory_code": "BF", "region": "Africa" }, "geometry": { "type": "Point", "coordinates": [-1.5616, 12.3641] } },
    { "type": "Feature", "properties": { "name": "Niger", "iso_a2": "NE", "territory_code": "NE", "region": "Africa" }, "geometry": { "type": "Point", "coordinates": [8.0817, 17.6078] } },
    { "type": "Feature", "properties": { "name": "Chad", "iso_a2": "TD", "territory_code": "TD", "region": "Africa" }, "geometry": { "type": "Point", "coordinates": [18.7322, 15.4542] } },
    { "type": "Feature", "properties": { "name": "Guinea", "iso_a2": "GN", "territory_code": "GN", "region": "Africa" }, "geometry": { "type": "Point", "coordinates": [-11.3407, 9.9456] } },
    { "type": "Feature", "properties": { "name": "Rwanda", "iso_a2": "RW", "territory_code": "RW", "region": "Africa" }, "geometry": { "type": "Point", "coordinates": [29.8739, -1.9403] } },
    { "type": "Feature", "properties": { "name": "Benin", "iso_a2": "BJ", "territory_code": "BJ", "region": "Africa" }, "geometry": { "type": "Point", "coordinates": [2.3158, 9.3077] } },
    { "type": "Feature", "properties": { "name": "Sierra Leone", "iso_a2": "SL", "territory_code": "SL", "region": "Africa" }, "geometry": { "type": "Point", "coordinates": [-11.7799, 8.4606] } },
    { "type": "Feature", "properties": { "name": "Togo", "iso_a2": "TG", "territory_code": "TG", "region": "Africa" }, "geometry": { "type": "Point", "coordinates": [0.8248, 8.6195] } },
    { "type": "Feature", "properties": { "name": "Central African Republic", "iso_a2": "CF", "territory_code": "CF", "region": "Africa" }, "geometry": { "type": "Point", "coordinates": [20.9394, 6.6111] } },
    { "type": "Feature", "properties": { "name": "Liberia", "iso_a2": "LR", "territory_code": "LR", "region": "Africa" }, "geometry": { "type": "Point", "coordinates": [-9.4295, 6.4281] } },
    { "type": "Feature", "properties": { "name": "Mauritania", "iso_a2": "MR", "territory_code": "MR", "region": "Africa" }, "geometry": { "type": "Point", "coordinates": [-10.9408, 21.0079] } },
    { "type": "Feature", "properties": { "name": "Botswana", "iso_a2": "BW", "territory_code": "BW", "region": "Africa" }, "geometry": { "type": "Point", "coordinates": [24.6849, -22.3285] } },
    { "type": "Feature", "properties": { "name": "Namibia", "iso_a2": "NA", "territory_code": "NA", "region": "Africa" }, "geometry": { "type": "Point", "coordinates": [18.4904, -22.9576] } },
    { "type": "Feature", "properties": { "name": "Lesotho", "iso_a2": "LS", "territory_code": "LS", "region": "Africa" }, "geometry": { "type": "Point", "coordinates": [28.2336, -29.6100] } },
    { "type": "Feature", "properties": { "name": "Eswatini", "iso_a2": "SZ", "territory_code": "SZ", "region": "Africa" }, "geometry": { "type": "Point", "coordinates": [31.4659, -26.5225] } },
    { "type": "Feature", "properties": { "name": "Cape Verde", "iso_a2": "CV", "territory_code": "CV", "region": "Africa" }, "geometry": { "type": "Point", "coordinates": [-24.0132, 16.5388] } },
    { "type": "Feature", "properties": { "name": "Mauritius", "iso_a2": "MU", "territory_code": "MU", "region": "Africa" }, "geometry": { "type": "Point", "coordinates": [57.5522, -20.3484] } },
    { "type": "Feature", "properties": { "name": "Algeria", "iso_a2": "DZ", "territory_code": "DZ", "region": "Africa" }, "geometry": { "type": "Point", "coordinates": [1.6596, 28.0339] } },
    { "type": "Feature", "properties": { "name": "Morocco", "iso_a2": "MA", "territory_code": "MA", "region": "Africa" }, "geometry": { "type": "Point", "coordinates": [-7.0926, 31.7917] } },
    { "type": "Feature", "properties": { "name": "Tunisia", "iso_a2": "TN", "territory_code": "TN", "region": "Africa" }, "geometry": { "type": "Point", "coordinates": [9.5375, 33.8869] } },
    { "type": "Feature", "properties": { "name": "Libya", "iso_a2": "LY", "territory_code": "LY", "region": "Africa" }, "geometry": { "type": "Point", "coordinates": [17.2283, 26.3351] } },
    { "type": "Feature", "properties": { "name": "Gabon", "iso_a2": "GA", "territory_code": "GA", "region": "Africa" }, "geometry": { "type": "Point", "coordinates": [11.6094, -0.8037] } },
    { "type": "Feature", "properties": { "name": "Republic of the Congo", "iso_a2": "CG", "territory_code": "CG", "region": "Africa" }, "geometry": { "type": "Point", "coordinates": [15.8277, -0.2280] } },
    { "type": "Feature", "properties": { "name": "Angola", "iso_a2": "AO", "territory_code": "AO", "region": "Africa" }, "geometry": { "type": "Point", "coordinates": [17.8739, -11.2027] } },
    { "type": "Feature", "properties": { "name": "DR Congo", "iso_a2": "CD", "territory_code": "CD", "region": "Africa" }, "geometry": { "type": "Point", "coordinates": [23.6560, -4.0383] } },
    { "type": "Feature", "properties": { "name": "Sudan", "iso_a2": "SD", "territory_code": "SD", "region": "Africa" }, "geometry": { "type": "Point", "coordinates": [29.9189, 12.8628] } },
    { "type": "Feature", "properties": { "name": "Somalia", "iso_a2": "SO", "territory_code": "SO", "region": "Africa" }, "geometry": { "type": "Point", "coordinates": [46.1996, 5.1521] } },
    { "type": "Feature", "properties": { "name": "Malawi", "iso_a2": "MW", "territory_code": "MW", "region": "Africa" }, "geometry": { "type": "Point", "coordinates": [34.3015, -13.2543] } },
    { "type": "Feature", "properties": { "name": "Maldives", "iso_a2": "MV", "territory_code": "MV", "region": "Asia" }, "geometry": { "type": "Point", "coordinates": [73.2207, 3.2028] } },
    { "type": "Feature", "properties": { "name": "Bhutan", "iso_a2": "BT", "territory_code": "BT", "region": "Asia" }, "geometry": { "type": "Point", "coordinates": [90.4336, 27.5142] } },
    { "type": "Feature", "properties": { "name": "Timor-Leste", "iso_a2": "TL", "territory_code": "TL", "region": "Asia" }, "geometry": { "type": "Point", "coordinates": [125.7275, -8.8742] } }
  ]
}
